{ "ID": "07005", "Nom": "ABBEVILLE", "Latitude": 50.136000, "Longitude": 1.834000, "Altitude": 69 },
{ "ID": "07015", "Nom": "LILLE", "Latitude": 50.570000, "Longitude": 3.097500, "Altitude": 47 },
{ "ID": "07020", "Nom": "PTE DE LA HAGUE", "Latitude": 49.725167, "Longitude": -1.939833, "Altitude": 6 },
{ "ID": "07027", "Nom": "CAEN", "Latitude": 49.180000, "Longitude": -0.456167, "Altitude": 67 },
{ "ID": "07037", "Nom": "ROUEN", "Latitude": 49.383000, "Longitude": 1.181667, "Altitude": 151 },
{ "ID": "07072", "Nom": "REIMS", "Latitude": 49.209667, "Longitude": 4.155333, "Altitude": 95 },
{ "ID": "07110", "Nom": "BREST", "Latitude": 48.444167, "Longitude": -4.412000, "Altitude": 94 },
{ "ID": "07117", "Nom": "PLOUMANAC'H", "Latitude": 48.825833, "Longitude": -3.473167, "Altitude": 55 },
{ "ID": "07130", "Nom": "RENNES", "Latitude": 48.068833, "Longitude": -1.734000, "Altitude": 36 },
{ "ID": "07139", "Nom": "ALENCON", "Latitude": 48.445500, "Longitude": 0.110167, "Altitude": 143 },
{ "ID": "07149", "Nom": "ORLY", "Latitude": 48.716833, "Longitude": 2.384333, "Altitude": 89 },
{ "ID": "07168", "Nom": "TROYES", "Latitude": 48.324667, "Longitude": 4.020000, "Altitude": 112 },
{ "ID": "07181", "Nom": "NANCY", "Latitude": 48.581000, "Longitude": 5.959833, "Altitude": 336 },
{ "ID": "07190", "Nom": "STRASBOURG", "Latitude": 48.549500, "Longitude": 7.640333, "Altitude": 150 },
{ "ID": "07207", "Nom": "BELLE ILE", "Latitude": 47.294333, "Longitude": -3.218333, "Altitude": 34 },
{ "ID": "07222", "Nom": "NANTES", "Latitude": 47.150000, "Longitude": -1.608833, "Altitude": 26 },
{ "ID": "07240", "Nom": "TOURS", "Latitude": 47.444500, "Longitude": 0.727333, "Altitude": 108 },
{ "ID": "07255", "Nom": "BOURGES", "Latitude": 47.059167, "Longitude": 2.359833, "Altitude": 161 },
{ "ID": "07280", "Nom": "DIJON", "Latitude": 47.267833, "Longitude": 5.088333, "Altitude": 219 },
{ "ID": "07299", "Nom": "BALE", "Latitude": 47.614333, "Longitude": 7.510000, "Altitude": 263 },
{ "ID": "07314", "Nom": "PTE DE CHASSIRON", "Latitude": 46.046833, "Longitude": -1.411500, "Altitude": 11 },
{ "ID": "07335", "Nom": "POITIERS", "Latitude": 46.593833, "Longitude": 0.314333, "Altitude": 123 },
{ "ID": "07434", "Nom": "LIMOGES", "Latitude": 45.861167, "Longitude": 1.175000, "Altitude": 402 },
{ "ID": "07460", "Nom": "CLERMONT-FD", "Latitude": 45.786833, "Longitude": 3.149333, "Altitude": 331 },
{ "ID": "07471", "Nom": "LE PUY", "Latitude": 45.074500, "Longitude": 3.764000, "Altitude": 833 },
{ "ID": "07481", "Nom": "LYON", "Latitude": 45.726500, "Longitude": 5.077833, "Altitude": 235 },
{ "ID": "07510", "Nom": "BORDEAUX", "Latitude": 44.830667, "Longitude": -0.691333, "Altitude": 47 },
{ "ID": "07535", "Nom": "GOURDON", "Latitude": 44.745000, "Longitude": 1.396667, "Altitude": 260 },
{ "ID": "07558", "Nom": "MILLAU", "Latitude": 44.118500, "Longitude": 3.019500, "Altitude": 712 },
{ "ID": "07577", "Nom": "MONTELIMAR", "Latitude": 44.581167, "Longitude": 4.733000, "Altitude": 73 },
{ "ID": "07591", "Nom": "EMBRUN", "Latitude": 44.565667, "Longitude": 6.502333, "Altitude": 871 },
{ "ID": "07607", "Nom": "MONT-DE-MARSAN", "Latitude": 43.909833, "Longitude": -0.500167, "Altitude": 59 },
{ "ID": "07621", "Nom": "TARBES", "Latitude": 43.188000, "Longitude": 0.000000, "Altitude": 360 },
{ "ID": "07627", "Nom": "ST GIRONS", "Latitude": 43.005333, "Longitude": 1.106833, "Altitude": 414 },
{ "ID": "07630", "Nom": "TOULOUSE", "Latitude": 43.621000, "Longitude": 1.378833, "Altitude": 151 },
{ "ID": "07643", "Nom": "MONTPELLIER", "Latitude": 43.577000, "Longitude": 3.963167, "Altitude": 2 },
{ "ID": "07650", "Nom": "MARIGNANE", "Latitude": 43.437667, "Longitude": 5.216000, "Altitude": 9 },
{ "ID": "07661", "Nom": "CAP CEPET", "Latitude": 43.079333, "Longitude": 5.940833, "Altitude": 115 },
{ "ID": "07690", "Nom": "NICE", "Latitude": 43.648833, "Longitude": 7.209000, "Altitude": 2 },
{ "ID": "07747", "Nom": "PERPIGNAN", "Latitude": 42.737167, "Longitude": 2.872833, "Altitude": 42 },
{ "ID": "07761", "Nom": "AJACCIO", "Latitude": 41.918000, "Longitude": 8.792667, "Altitude": 5 },
{ "ID": "07790", "Nom": "BASTIA", "Latitude": 42.540667, "Longitude": 9.485167, "Altitude": 10 },
{ "ID": "61968", "Nom": "GLORIEUSES", "Latitude": -11.582667, "Longitude": 47.289667, "Altitude": 3 },
{ "ID": "61970", "Nom": "JUAN DE NOVA", "Latitude": -17.054667, "Longitude": 42.712000, "Altitude": 9 },
{ "ID": "61972", "Nom": "EUROPA", "Latitude": -22.344167, "Longitude": 40.340667, "Altitude": 6 },
{ "ID": "61976", "Nom": "TROMELIN", "Latitude": -15.887667, "Longitude": 54.520667, "Altitude": 7 },
{ "ID": "61980", "Nom": "GILLOT", "Latitude": -20.892500, "Longitude": 55.528667, "Altitude": 8 },
{ "ID": "61996", "Nom": "NOUVELLE AMSTERDAM", "Latitude": -37.795167, "Longitude": 77.569167, "Altitude": 27 },
{ "ID": "61997", "Nom": "CROZET", "Latitude": -46.432500, "Longitude": 51.856667, "Altitude": 146 },
{ "ID": "61998", "Nom": "KERGUELEN", "Latitude": -49.352333, "Longitude": 70.243333, "Altitude": 29 },
{ "ID": "67005", "Nom": "PAMANDZI", "Latitude": -12.805500, "Longitude": 45.282833, "Altitude": 7 },
{ "ID": "71805", "Nom": "ST-PIERRE", "Latitude": 46.766333, "Longitude": -56.179167, "Altitude": 21 },
{ "ID": "78890", "Nom": "LA DESIRADE METEO", "Latitude": 16.335000, "Longitude": -61.004000, "Altitude": 27 },
{ "ID": "78894", "Nom": "ST-BARTHELEMY METEO", "Latitude": 17.901500, "Longitude": -62.852167, "Altitude": 44 },
{ "ID": "78897", "Nom": "LE RAIZET AERO", "Latitude": 16.264000, "Longitude": -61.516333, "Altitude": 11 },
{ "ID": "78922", "Nom": "TRINITE", "Latitude": 14.774500, "Longitude": -60.875333, "Altitude": 26 },
{ "ID": "78925", "Nom": "LAMENTIN", "Latitude": 14.595333, "Longitude": -60.995667, "Altitude": 3 },
{ "ID": "81401", "Nom": "SAINT LAURENT", "Latitude": 5.485500, "Longitude": -54.031667, "Altitude": 5 },
{ "ID": "81405", "Nom": "CAYENNE", "Latitude": 4.822333, "Longitude": -52.365333, "Altitude": 4 },
{ "ID": "81408", "Nom": "SAINT GEORGES", "Latitude": 3.890667, "Longitude": -51.804667, "Altitude": 6 },
{ "ID": "81415", "Nom": "MARIPASOULA", "Latitude": 3.640167, "Longitude": -54.028333, "Altitude": 106 },
{ "ID": "89642", "Nom": "DUMONT D'URVILLE", "Latitude": -66.663167, "Longitude": 140.001000, "Altitude": 43 }
